{
  "cities": [
    {
      "cityName": "Lisbon",
      "country": "Portugal",
      "emoji": "ðŸ‡µðŸ‡¹",
      "date": "2027-10-31T15:59:59.138Z",
      "notes": "My favorite city so far!",
      "position": {
        "lat": 38.727881642324164,
        "lng": -9.140900099907554
      },
      "id": "73930385"
    },
    {
      "cityName": "Madrid",
      "country": "Spain",
      "emoji": "ðŸ‡ªðŸ‡¸",
      "date": "2027-07-15T08:22:53.976Z",
      "notes": "",
      "position": {
        "lat": 40.46635901755316,
        "lng": -3.7133789062500004
      },
      "id": "17806751"
    },
    {
      "cityName": "Berlin",
      "country": "Germany",
      "emoji": "ðŸ‡©ðŸ‡ª",
      "date": "2027-02-12T09:24:11.863Z",
      "notes": "Amazing ðŸ˜ƒ",
      "position": {
        "lat": 52.53586782505711,
        "lng": 13.376933665713324
      },
      "id": "98443197"
    },
    {
      "cityName": "Nijar",
      "country": "Spain",
      "emoji": "ðŸ‡ªðŸ‡¸",
      "date": "2023-04-03T07:47:59.202Z",
      "notes": "",
      "position": {
        "lat": "36.967508314568164",
        "lng": "-2.13128394200588"
      },
      "id": "98443198"
    },
    {
      "id": "7d11",
      "cityName": "Castello de la Plana",
      "country": "Spain",
      "emoji": "ðŸ‡ªðŸ‡¸",
      "date": "2024-03-07T08:59:59.533Z",
      "notes": "",
      "position": {
        "lat": "40.00470126257488",
        "lng": "-0.0063111740618770895"
      }
    },
    {
      "id": "93af",
      "cityName": "Vilanova d'Alcolea",
      "country": "Spain",
      "emoji": "ðŸ‡ªðŸ‡¸",
      "date": "2024-03-07T09:00:07.511Z",
      "notes": "",
      "position": {
        "lat": "40.25793866558168",
        "lng": "0.06264551433786904"
      }
    },
    {
      "id": "a97f",
      "cityName": "Culla",
      "country": "Spain",
      "emoji": "ðŸ‡ªðŸ‡¸",
      "date": "2024-03-07T09:00:32.576Z",
      "notes": "",
      "position": {
        "lat": "40.33129153383957",
        "lng": "-0.08986811275402574"
      }
    },
    {
      "id": "f634",
      "cityName": "Tortosa",
      "country": "Spain",
      "emoji": "ðŸ‡ªðŸ‡¸",
      "date": "2024-03-07T09:04:24.648Z",
      "notes": "",
      "position": {
        "lat": "40.79911668620981",
        "lng": "0.5695800956663533"
      }
    },
    {
      "id": "9976",
      "cityName": "Nonaspe",
      "country": "Spain",
      "emoji": "ðŸ‡ªðŸ‡¸",
      "date": "2024-03-07T09:07:03.063Z",
      "notes": "",
      "position": {
        "lat": "41.196949859288374",
        "lng": "0.2834233479829252"
      }
    }
  ]
}